{"items":[{"title":"Padma Kunvarba Society, Raiya Road, Rajkot, Gujarat, India","id":"here:cm:namedplace:28152773","resultType":"locality","localityType":"subdistrict","address":{"label":"Padma Kunvarba Society, Raiya Road, Rajkot, Gujarat, India","countryCode":"IND","countryName":"India","stateCode":"GJ","state":"Gujarat","county":"Rajkot","city":"Rajkot","district":"Raiya Road","subdistrict":"Padma Kunvarba Society","postalCode":"360007"},"position":{"lat":22.30437,"lng":70.77738},"mapView":{"west":70.77697,"south":22.3037,"east":70.77803,"north":22.30461},"scoring":{"queryScore":0.64,"fieldScore":{"subdistrict":0.58}}},{"title":"Ozone Villas Society, Wagholi, Haveli, Maharashtra, India","id":"here:cm:namedplace:28122184","resultType":"locality","localityType":"subdistrict","address":{"label":"Ozone Villas Society, Wagholi, Haveli, Maharashtra, India","countryCode":"IND","countryName":"India","stateCode":"MH","state":"Maharashtra","county":"Pune","city":"Haveli","district":"Wagholi","subdistrict":"Ozone Villas Society","postalCode":"412207"},"position":{"lat":18.58347,"lng":73.97776},"mapView":{"west":73.97631,"south":18.58175,"east":73.97942,"north":18.58385},"scoring":{"queryScore":0.62,"fieldScore":{"subdistrict":0.61}}}]}